[
  {
    "entityCountry": "Nigeria",
    "entityName": "Central Bank; Nigeria",
    "entityClass": "Identifiable",
    "entityType": "Other",
    "typeCertainty": 3,
    "entityLevel": "National",
    "levelCertainty": 3,
    "lat": 9.0509,
    "lon": 7.4924,
    "locationType": "Exact",
    "sources": "https://www.cbn.gov.ng/; http://www.cbn.gov.ng/redenomination/newpolicy.asp"
  },
  {
    "entityCountry": "Nigeria",
    "entityName": "Content Development and Monitoring Board; Nigeria",
    "entityClass": "Identifiable",
    "entityType": "Government",
    "typeCertainty": 3,
    "entityLevel": "National",
    "levelCertainty": 3,
    "lat": 4.9139,
    "lon": 6.3021,
    "locationType": "Exact",
    "sources": "http://ncdmb.gov.ng/"
  },
  {
    "entityCountry": "Nigeria",
    "entityName": "Delta Development Commission; Ministry of Niger Delta Affairs; Nigeria",
    "entityClass": "Identifiable",
    "entityType": "Government",
    "typeCertainty": 3,
    "entityLevel": "National",
    "levelCertainty": 3,
    "lat": 6.3287,
    "lon": 5.6439,
    "locationType": "Exact",
    "sources": "http://nddc.gov.ng/"
  },
  {
    "entityCountry": "Nigeria",
    "entityName": "Department of Petroleum Resources; Federal Ministry of Petroleum Resources; Nigeria",
    "entityClass": "Identifiable",
    "entityType": "Government",
    "typeCertainty": 3,
    "entityLevel": "National",
    "levelCertainty": 3,
    "lat": 9.0606,
    "lon": 7.4911,
    "locationType": "Exact",
    "sources": "https://dpr.gov.ng/index/history-of-dpr/"
  },
  {
    "entityCountry": "Nigeria",
    "entityName": "Export Supervision Scheme; Federal Ministry of Finance; Nigeria",
    "entityClass": "Identifiable",
    "entityType": "Government",
    "typeCertainty": 3,
    "entityLevel": "National",
    "levelCertainty": 3,
    "lat": 9.0734,
    "lon": 7.4775,
    "locationType": "Exact",
    "sources": "http://www.nerolitech.com/nigeriaexportsupervisionscheme/"
  },
  {
    "entityCountry": "Nigeria",
    "entityName": "Federal Government of Nigeria",
    "entityClass": "Identifiable",
    "entityType": "Government",
    "typeCertainty": 3,
    "entityLevel": "National",
    "levelCertainty": 3,
    "lat": 9.0624,
    "lon": 7.5185,
    "locationType": "Exact",
    "sources": "http://www.nigeria.gov.ng/",
    "notes": "Fixed-The coordinates are for the State house, Presidential Villa"
  },
  {
    "entityCountry": "Nigeria",
    "entityName": "Federal Inland Revenue Service; Federal Ministry of Finance; Nigeria",
    "entityClass": "Identifiable",
    "entityType": "Government",
    "typeCertainty": 3,
    "entityLevel": "National",
    "levelCertainty": 3,
    "lat": 9.0658,
    "lon": 7.4544,
    "locationType": "Exact",
    "sources": "http://www.firs.gov.ng/Pages/Default.aspx"
  },
  {
    "entityCountry": "Nigeria",
    "entityName": "Federal Ministry of Industry, Trade and Investment; Nigeria",
    "entityClass": "Identifiable",
    "entityType": "Government",
    "typeCertainty": 3,
    "entityLevel": "National",
    "levelCertainty": 3,
    "lat": 9.0249,
    "lon": 7.471,
    "locationType": "Exact",
    "sources": "https://www.facebook.com/FMITINigeria/"
  },
  {
    "entityCountry": "Nigeria",
    "entityName": "Kaduna State Government; Nigeria",
    "entityClass": "Identifiable",
    "entityType": "Government",
    "typeCertainty": 3,
    "entityLevel": "Regional",
    "levelCertainty": 3,
    "lat": 10.5287,
    "lon": 7.42,
    "locationType": "Exact",
    "sources": "https://kdsg.gov.ng/",
    "notes": "The coordinates are for the Kaduna State Government House"
  },
  {
    "entityCountry": "Nigeria",
    "entityName": "Maritime Administration and Safety Agency; Federal Ministry of Transportation; Nigeria",
    "entityClass": "Identifiable",
    "entityType": "Government",
    "typeCertainty": 3,
    "entityLevel": "National",
    "levelCertainty": 3,
    "lat": 7.8004,
    "lon": 6.748,
    "locationType": "Exact",
    "sources": "http://nimasa.gov.ng/"
  },
  {
    "entityCountry": "Nigeria",
    "entityName": "Mining Cadastre Office; Ministry of Mines and Steel Development; Nigeria",
    "entityClass": "Identifiable",
    "entityType": "Government",
    "typeCertainty": 3,
    "entityLevel": "National",
    "levelCertainty": 3,
    "lat": 9.0747,
    "lon": 7.4903,
    "locationType": "Exact",
    "sources": "http://www.minesandsteel.gov.ng/agencies/mining-cadastre-office/"
  },
  {
    "entityCountry": "Nigeria",
    "entityName": "Ministry of Mines and Steel Development; Nigeria",
    "entityClass": "Identifiable",
    "entityType": "Government",
    "typeCertainty": 3,
    "entityLevel": "National",
    "levelCertainty": 3,
    "lat": 9.0749,
    "lon": 7.4904,
    "locationType": "Exact",
    "sources": "http://www.minesandsteel.gov.ng/",
    "notes": "The coordinates are for the street where Office is"
  },
  {
    "entityCountry": "Nigeria",
    "entityName": "Nigerian National Petroleum Corporation (NNPC)",
    "entityClass": "Identifiable",
    "entityType": "SOE",
    "typeCertainty": 3,
    "entityLevel": "National",
    "levelCertainty": 3,
    "lat": 5.0144,
    "lon": 8.324,
    "locationType": "Exact",
    "sources": "http://nnpcgroup.com/"
  },
  {
    "entityCountry": "Nigeria",
    "entityName": "Petroleum Exchange; National Petroleum Investment Management Services; Nigeria",
    "entityClass": "Identifiable",
    "entityType": "Government",
    "typeCertainty": 3,
    "entityLevel": "National",
    "levelCertainty": 3,
    "lat": 6.4398,
    "lon": 3.4479,
    "locationType": "Exact",
    "sources": "http://www.nipexnig.com/"
  },
  {
    "entityCountry": "Nigeria",
    "entityName": "Municipality of Stavanger",
    "entityClass": "Unidentifiable",
    "notes": "out of country"
  },
  {
    "entityCountry": "Nigeria",
    "entityName": "Stavanger Tax Office",
    "entityClass": "Unidentifiable",
    "notes": "out of country"
  },
  {
    "entityCountry": "Nigeria",
    "entityName": "Treasurer in Stavanger",
    "entityClass": "Unidentifiable",
    "notes": "out of country"
  }
]
